<ArGpsLocationData><Entry><id>1</id><altitude>3</altitude><altitudeMode>GroundRelative</altitudeMode><name>01_center</name><meshId>01_center</meshId><movementSmoothing>0.05</movementSmoothing><maxNumberOfLocationUpdates>0</maxNumberOfLocationUpdates><useMovingAverage>false</useMovingAverage><hideObjectUtilItIsPlaced>true</hideObjectUtilItIsPlaced><lat>35.65974482361608</lat><lng>139.7002437648166</lng></Entry><Entry><id>2</id><altitude>3</altitude><altitudeMode>GroundRelative</altitudeMode><name>02_Only</name><meshId>02_Only</meshId><movementSmoothing>0.05</movementSmoothing><maxNumberOfLocationUpdates>0</maxNumberOfLocationUpdates><useMovingAverage>false</useMovingAverage><hideObjectUtilItIsPlaced>true</hideObjectUtilItIsPlaced><lat>35.65957386413224</lat><lng>139.7005889580043</lng></Entry><Entry><id>3</id><altitude>1</altitude><altitudeMode>GroundRelative</altitudeMode><name>03_noisy</name><meshId>03_noisy</meshId><movementSmoothing>0.05</movementSmoothing><maxNumberOfLocationUpdates>0</maxNumberOfLocationUpdates><useMovingAverage>false</useMovingAverage><hideObjectUtilItIsPlaced>true</hideObjectUtilItIsPlaced><lat>35.659488930949195</lat><lng>139.70050594592578</lng></Entry><Entry><id>4</id><altitude>1</altitude><altitudeMode>GroundRelative</altitudeMode><name>04_love or hate</name><meshId>04_love or hate</meshId><movementSmoothing>0.05</movementSmoothing><maxNumberOfLocationUpdates>0</maxNumberOfLocationUpdates><useMovingAverage>false</useMovingAverage><hideObjectUtilItIsPlaced>true</hideObjectUtilItIsPlaced><lat>35.660484003284594</lat><lng>139.69699257625058</lng></Entry><Entry><id>5</id><altitude>3</altitude><altitudeMode>GroundRelative</altitudeMode><name>05_why</name><meshId>05_why</meshId><movementSmoothing>0.05</movementSmoothing><maxNumberOfLocationUpdates>0</maxNumberOfLocationUpdates><useMovingAverage>false</useMovingAverage><hideObjectUtilItIsPlaced>true</hideObjectUtilItIsPlaced><lat>35.65808684736369</lat><lng>139.70045210347934</lng></Entry><Entry><id>6</id><altitude>3</altitude><altitudeMode>GroundRelative</altitudeMode><name>06_now in blank</name><meshId>06_now in blank</meshId><movementSmoothing>0.05</movementSmoothing><maxNumberOfLocationUpdates>0</maxNumberOfLocationUpdates><useMovingAverage>false</useMovingAverage><hideObjectUtilItIsPlaced>true</hideObjectUtilItIsPlaced><lat>35.65710378843667</lat><lng>139.70169059371943</lng></Entry><Entry><id>7</id><altitude>6</altitude><altitudeMode>GroundRelative</altitudeMode><name>07_lose and born</name><meshId>07_lose and born</meshId><movementSmoothing>0.05</movementSmoothing><maxNumberOfLocationUpdates>0</maxNumberOfLocationUpdates><useMovingAverage>false</useMovingAverage><hideObjectUtilItIsPlaced>true</hideObjectUtilItIsPlaced><lat>35.66145291857222</lat><lng>139.7021696300307</lng></Entry><Entry><id>8</id><altitude>1</altitude><altitudeMode>GroundRelative</altitudeMode><name>08_culture is</name><meshId>08_culture is</meshId><movementSmoothing>0.05</movementSmoothing><maxNumberOfLocationUpdates>0</maxNumberOfLocationUpdates><useMovingAverage>false</useMovingAverage><hideObjectUtilItIsPlaced>true</hideObjectUtilItIsPlaced><lat>35.661670244291244</lat><lng>139.69880667494493</lng></Entry><Entry><id>9</id><altitude>2</altitude><altitudeMode>GroundRelative</altitudeMode><name>09_where</name><meshId>09_where</meshId><movementSmoothing>0.05</movementSmoothing><maxNumberOfLocationUpdates>0</maxNumberOfLocationUpdates><useMovingAverage>false</useMovingAverage><hideObjectUtilItIsPlaced>true</hideObjectUtilItIsPlaced><lat>35.66355865559434</lat><lng>139.70192718659382</lng></Entry><Entry><id>11</id><altitude>0</altitude><altitudeMode>GroundRelative</altitudeMode><name>10_who are you</name><meshId>10_who are you</meshId><movementSmoothing>0.05</movementSmoothing><maxNumberOfLocationUpdates>0</maxNumberOfLocationUpdates><useMovingAverage>false</useMovingAverage><hideObjectUtilItIsPlaced>true</hideObjectUtilItIsPlaced><lat>35.66080204555112</lat><lng>139.69869170072587</lng></Entry><Entry><id>12</id><altitude>2</altitude><altitudeMode>GroundRelative</altitudeMode><name>11_be nonsense</name><meshId>11_be nonsense</meshId><movementSmoothing>0.05</movementSmoothing><maxNumberOfLocationUpdates>0</maxNumberOfLocationUpdates><useMovingAverage>false</useMovingAverage><hideObjectUtilItIsPlaced>true</hideObjectUtilItIsPlaced><lat>35.66043944188917</lat><lng>139.70071178745405</lng></Entry><Entry><id>15</id><altitude>0</altitude><altitudeMode>GroundRelative</altitudeMode><name>12_2_snap life</name><meshId>12_2_snap life</meshId><movementSmoothing>0.05</movementSmoothing><maxNumberOfLocationUpdates>0</maxNumberOfLocationUpdates><useMovingAverage>false</useMovingAverage><hideObjectUtilItIsPlaced>true</hideObjectUtilItIsPlaced><lat>35.66331767370788</lat><lng>139.70135369160357</lng></Entry><Entry><id>16</id><altitude>0</altitude><altitudeMode>GroundRelative</altitudeMode><name>13_i am</name><meshId>13_i am</meshId><movementSmoothing>0.05</movementSmoothing><maxNumberOfLocationUpdates>0</maxNumberOfLocationUpdates><useMovingAverage>false</useMovingAverage><hideObjectUtilItIsPlaced>true</hideObjectUtilItIsPlaced><lat>35.66645936451876</lat><lng>139.70597192477965</lng></Entry><Entry><id>19</id><altitude>0</altitude><altitudeMode>GroundRelative</altitudeMode><name>14_onlyonly</name><meshId>14_onlyonly</meshId><movementSmoothing>0.05</movementSmoothing><maxNumberOfLocationUpdates>0</maxNumberOfLocationUpdates><useMovingAverage>false</useMovingAverage><hideObjectUtilItIsPlaced>true</hideObjectUtilItIsPlaced><lat>35.66209819516992</lat><lng>139.70130623436472</lng></Entry><Entry><id>20</id><altitude>4</altitude><altitudeMode>GroundRelative</altitudeMode><name>15_cut loose</name><meshId>15_cut loose</meshId><movementSmoothing>0.05</movementSmoothing><maxNumberOfLocationUpdates>0</maxNumberOfLocationUpdates><useMovingAverage>false</useMovingAverage><hideObjectUtilItIsPlaced>true</hideObjectUtilItIsPlaced><lat>35.65205410608641</lat><lng>139.70692687351806</lng></Entry><Entry><id>21</id><altitude>1</altitude><altitudeMode>GroundRelative</altitudeMode><name>16_whatever</name><meshId>16_whatever</meshId><movementSmoothing>0.05</movementSmoothing><maxNumberOfLocationUpdates>0</maxNumberOfLocationUpdates><useMovingAverage>false</useMovingAverage><hideObjectUtilItIsPlaced>true</hideObjectUtilItIsPlaced><lat>35.66034411411276</lat><lng>139.70144354944597</lng></Entry><Entry><id>22</id><altitude>1</altitude><altitudeMode>GroundRelative</altitudeMode><name>17_somehow hate</name><meshId>17_somehow hate</meshId><movementSmoothing>0.05</movementSmoothing><maxNumberOfLocationUpdates>0</maxNumberOfLocationUpdates><useMovingAverage>false</useMovingAverage><hideObjectUtilItIsPlaced>true</hideObjectUtilItIsPlaced><lat>35.65954820934029</lat><lng>139.70144292841303</lng></Entry><Entry><id>23</id><altitude>2</altitude><altitudeMode>GroundRelative</altitudeMode><name>18_out of</name><meshId>18_out of</meshId><movementSmoothing>0.05</movementSmoothing><maxNumberOfLocationUpdates>0</maxNumberOfLocationUpdates><useMovingAverage>false</useMovingAverage><hideObjectUtilItIsPlaced>true</hideObjectUtilItIsPlaced><lat>35.66231778288228</lat><lng>139.700828414969</lng></Entry><Entry><id>25</id><altitude>1</altitude><altitudeMode>GroundRelative</altitudeMode><name>19_who is mad</name><meshId>19_who is mad</meshId><movementSmoothing>0.05</movementSmoothing><maxNumberOfLocationUpdates>0</maxNumberOfLocationUpdates><useMovingAverage>false</useMovingAverage><hideObjectUtilItIsPlaced>true</hideObjectUtilItIsPlaced><lat>35.65950480178459</lat><lng>139.69944179075839</lng></Entry><Entry><id>26</id><altitude>0</altitude><altitudeMode>GroundRelative</altitudeMode><name>20_keep it fake</name><meshId>20_keep it fake</meshId><movementSmoothing>0.05</movementSmoothing><maxNumberOfLocationUpdates>0</maxNumberOfLocationUpdates><useMovingAverage>false</useMovingAverage><hideObjectUtilItIsPlaced>true</hideObjectUtilItIsPlaced><lat>35.660963154803156</lat><lng>139.69828110519182</lng></Entry><Entry><id>27</id><altitude>1</altitude><altitudeMode>GroundRelative</altitudeMode><name>21_take me</name><meshId>21_take me</meshId><movementSmoothing>0.05</movementSmoothing><maxNumberOfLocationUpdates>0</maxNumberOfLocationUpdates><useMovingAverage>false</useMovingAverage><hideObjectUtilItIsPlaced>true</hideObjectUtilItIsPlaced><lat>35.659084907453476</lat><lng>139.69772712499315</lng></Entry></ArGpsLocationData>
